[
    {
      "id": 83,
      "name": "AVENAL STATE PRISON",
      "county": "KINGS",
      "lat": 35.97394934,
      "lon": -120.1231018,
      "county-fips": 6031
    },
    {
      "id": 88,
      "name": "CALIFORNIA CITY CORRECTIONAL FACILITY",
      "county": "KERN",
      "lat": 35.1532512,
      "lon": -117.8588801,
      "county-fips": 6029
    },
    {
      "id": 89,
      "name": "CALIFORNIA CORRECTIONAL CENTER",
      "county": "LASSEN",
      "lat": 40.40195801,
      "lon": -120.5167302,
      "county-fips": 6035
    },
    {
      "id": 90,
      "name": "CALIFORNIA CORRECTIONAL INSTITUTION",
      "county": "KERN",
      "lat": 35.10991489,
      "lon": -118.5703307,
      "county-fips": 6029
    },
    {
      "id": 91,
      "name": "CALIFORNIA HEALTH CARE FACILITY",
      "county": "SAN JOAQUIN",
      "lat": 37.8947278,
      "lon": -121.1848441,
      "county-fips": 6077
    },
    {
      "id": 92,
      "name": "CALIFORNIA INSTITUTION FOR MEN",
      "county": "SAN BERNARDINO",
      "lat": 33.98471223,
      "lon": -117.6823919,
      "county-fips": 6071
    },
    {
      "id": 93,
      "name": "CALIFORNIA INSTITUTION FOR WOMEN",
      "county": "SAN BERNARDINO",
      "lat": 33.94974531,
      "lon": -117.636365,
      "county-fips": 6071
    },
    {
      "id": 94,
      "name": "CALIFORNIA MEDICAL FACILITY",
      "county": "SOLANO",
      "lat": 38.32851019,
      "lon": -121.9791645,
      "county-fips": 6095
    },
    {
      "id": 95,
      "name": "CALIFORNIA MENS COLONY",
      "county": "SAN LUIS OBISPO",
      "lat": 35.32457413,
      "lon": -120.6989005,
      "county-fips": 6079
    },
    {
      "id": 96,
      "name": "CALIFORNIA REHABILITATION CENTER",
      "county": "RIVERSIDE",
      "lat": 33.92691794,
      "lon": -117.5759442,
      "county-fips": 6065
    },
    {
      "id": 97,
      "name": "CALIFORNIA STATE PRISON CORCORAN",
      "county": "KINGS",
      "lat": 36.06081823,
      "lon": -119.549121,
      "county-fips": 6031
    },
    {
      "id": 98,
      "name": "CALIFORNIA STATE PRISON LOS ANGELES",
      "county": "LOS ANGELES",
      "lat": 34.69359649,
      "lon": -118.2276136,
      "county-fips": 6037
    },
    {
      "id": 99,
      "name": "CALIFORNIA STATE PRISON SACRAMENTO",
      "county": "SACRAMENTO",
      "lat": 38.69444411,
      "lon": -121.1539037,
      "county-fips": 6067
    },
    {
      "id": 100,
      "name": "CALIFORNIA STATE PRISON SAN QUENTIN",
      "county": "MARIN",
      "lat": 37.94003982,
      "lon": -122.4903665,
      "county-fips": 6041
    },
    {
      "id": 101,
      "name": "CALIFORNIA STATE PRISON SOLANO",
      "county": "SOLANO",
      "lat": 38.32077652,
      "lon": -121.9752369,
      "county-fips": 6095
    },
    {
      "id": 102,
      "name": "CALIPATRIA STATE PRISON",
      "county": "IMPERIAL",
      "lat": 33.16569337,
      "lon": -115.484344,
      "county-fips": 6025
    },
    {
      "id": 111,
      "name": "CENTINELA STATE PRISON",
      "county": "IMPERIAL",
      "lat": 32.82339731,
      "lon": -115.7890555,
      "county-fips": 6025
    },
    {
      "id": 112,
      "name": "CENTRAL CALIFORNIA WOMENS FACILITY",
      "county": "MADERA",
      "lat": 37.09368073,
      "lon": -120.1527098,
      "county-fips": 6039
    },
    {
      "id": 113,
      "name": "CHUCKAWALLA VALLEY STATE PRISON",
      "county": "RIVERSIDE",
      "lat": 33.56257951,
      "lon": -114.9095058,
      "county-fips": 6065
    },
    {
      "id": 115,
      "name": "CORRECTIONAL TRAINING FACILITY",
      "county": "MONTEREY",
      "lat": 36.46964789,
      "lon": -121.3822324,
      "county-fips": 6053
    },
    {
      "id": 116,
      "name": "DEUEL VOCATIONAL INSTITUTION",
      "county": "SAN JOAQUIN",
      "lat": 37.74805759,
      "lon": -121.3306264,
      "county-fips": 6077
    },
    {
      "id": 120,
      "name": "FOLSOM STATE PRISON",
      "county": "SACRAMENTO",
      "lat": 38.69538339,
      "lon": -121.1630324,
      "county-fips": 6067
    },
    {
      "id": 128,
      "name": "HIGH DESERT STATE PRISON",
      "county": "LASSEN",
      "lat": 40.4034569,
      "lon": -120.5258579,
      "county-fips": 6035
    },
    {
      "id": 129,
      "name": "IRONWOOD STATE PRISON",
      "county": "RIVERSIDE",
      "lat": 33.56098104,
      "lon": -114.9260354,
      "county-fips": 6065
    },
    {
      "id": 131,
      "name": "KERN VALLEY STATE PRISON",
      "county": "KERN",
      "lat": 35.76647437,
      "lon": -119.3253627,
      "county-fips": 6029
    },
    {
      "id": 135,
      "name": "LOS ANGELES JAILS",
      "county": "",
      "lat": 34.0591,
      "lon": -118.2321,
      "county-fips": 6037
    },
    {
      "id": 139,
      "name": "MULE CREEK STATE PRISON",
      "county": "AMADOR",
      "lat": 38.37074335,
      "lon": -120.9534458,
      "county-fips": 6005
    },
    {
      "id": 140,
      "name": "NA CHADERJIAN YOUTH CORRECTIONAL FACILITY",
      "county": "SAN JOAQUIN",
      "lat": 37.8911829,
      "lon": -121.1978212,
      "county-fips": 6077
    },
    {
      "id": 141,
      "name": "NORTH KERN STATE PRISON",
      "county": "KERN",
      "lat": 35.78188512,
      "lon": -119.3098757,
      "county-fips": 6029
    },
    {
      "id": 142,
      "name": "NORTHERN CALIFORNIA YOUTH CORRECTIONAL CENTER",
      "county": "SAN JOAQUIN",
      "lat": 37.8911829,
      "lon": -121.1978213,
      "county-fips": 6077
    },
    {
      "id": 143,
      "name": "OH CLOSE YOUTH CORRECTIONAL FACILITY",
      "county": "SAN JOAQUIN",
      "lat": 37.89852126,
      "lon": -121.1976947,
      "county-fips": 6077
    },
    {
      "id": 144,
      "name": "ORANGE COUNTY JAILS",
      "county": "ORANGE",
      "lat": 33.7489556,
      "lon": -117.8774523,
      "county-fips": 6059
    },
    {
      "id": 145,
      "name": "PELICAN BAY STATE PRISON",
      "county": "DEL NORTE",
      "lat": 41.85480851,
      "lon": -124.1490751,
      "county-fips": 6015
    },
    {
      "id": 147,
      "name": "PLEASANT VALLEY STATE PRISON",
      "county": "FRESNO",
      "lat": 36.13147309,
      "lon": -120.2488996,
      "county-fips": 6019
    },
    {
      "id": 148,
      "name": "RICHARD A MCGEE CORRECTIONAL TRAINING CENTER",
      "county": "",
      "lat": 38.2890255,
      "lon": -121.3279067,
      "county-fips": 6067
    },
    {
      "id": 150,
      "name": "RJ DONOVAN CORRECTIONAL FACILITY",
      "county": "SAN DIEGO",
      "lat": 32.58456487,
      "lon": -116.9335763,
      "county-fips": 6073
    },
    {
      "id": 152,
      "name": "SALINAS VALLEY STATE PRISON",
      "county": "MONTEREY",
      "lat": 36.47885699,
      "lon": -121.3743944,
      "county-fips": 6053
    },
    {
      "id": 158,
      "name": "SIERRA CONSERVATION CENTER",
      "county": "TUOLUMNE",
      "lat": 37.89168856,
      "lon": -120.5365401,
      "county-fips": 6109
    },
    {
      "id": 161,
      "name": "SUBSTANCE ABUSE TREATMENT FACILITY",
      "county": "KINGS",
      "lat": 36.05396,
      "lon": -119.5478,
      "county-fips": 6031
    },
    {
      "id": 164,
      "name": "VALLEY STATE PRISON",
      "county": "MADERA",
      "lat": 37.10547736,
      "lon": -120.1554719,
      "county-fips": 6039
    },
    {
      "id": 171,
      "name": "WASCO STATE PRISON",
      "county": "KERN",
      "lat": 35.59431189,
      "lon": -119.4083319,
      "county-fips": 6029
    },
    {
      "id": 1719,
      "name": "CDCR CCHCS WORKSITE - HUMBOLDT COUNTY",
      "county": "HUMBOLDT",
      "lat": 37.155177,
      "lon": -119.543418,
      "county-fips": ""
    },
    {
      "id": 1720,
      "name": "CDCR CCHCS WORKSITE - SAN FRANCISCO COUNTY",
      "county": "SAN FRANCISCO",
      "lat": 37.155177,
      "lon": -119.543418,
      "county-fips": ""
    },
    {
      "id": 1721,
      "name": "CDCR CCHCS WORKSITE - YOLO COUNTY",
      "county": "YOLO",
      "lat": 37.155177,
      "lon": -119.543418,
      "county-fips": ""
    },
    {
      "id": 1722,
      "name": "CDCR CCHCS WORKSITE - ALAMEDA COUNTY",
      "county": "ALAMEDA",
      "lat": 37.155177,
      "lon": -119.543418,
      "county-fips": ""
    },
    {
      "id": 1723,
      "name": "CDCR CCHCS WORKSITE - MERCED COUNTY",
      "county": "MERCED",
      "lat": 37.155177,
      "lon": -119.543418,
      "county-fips": ""
    },
    {
      "id": 1724,
      "name": "SACRAMENTO COUNTY JAIL",
      "county": "SACRAMENTO",
      "lat": 38.58298737,
      "lon": -121.4974903,
      "county-fips": 6067
    },
    {
      "id": 1725,
      "name": "SAN DIEGO COUNTY JAILS",
      "county": "SAN DIEGO",
      "lat": 32.71725211,
      "lon": -117.1642716,
      "county-fips": 6073
    },
    {
      "id": 1726,
      "name": "SANTA CLARA COUNTY JAIL",
      "county": "SANTA CLARA",
      "lat": 37.35147,
      "lon": -121.9063,
      "county-fips": 6085
    },
    {
      "id": 1727,
      "name": "SANTA RITA JAIL",
      "county": "ALAMEDA",
      "lat": 37.71784065,
      "lon": -121.8877904,
      "county-fips": 6001
    },
    {
      "id": 1773,
      "name": "ADELANTO ICE PROCESSING CENTER",
      "county": "San Bernardino",
      "lat": 34.559424,
      "lon": -117.442225,
      "county-fips": ""
    },
    {
      "id": 1811,
      "name": "ICE GOLDEN STATE ANNEX FACILITY",
      "county": "Kern",
      "lat": 35.6681,
      "lon": -119.225818,
      "county-fips": ""
    },
    {
      "id": 1817,
      "name": "ICE IMPERIAL REGIONAL DETENTION FACILITY",
      "county": "Imperial",
      "lat": 32.68755,
      "lon": -115.541,
      "county-fips": ""
    },
    {
      "id": 1826,
      "name": "ICE LA STAGING",
      "county": "Los Angeles",
      "lat": 34.05447,
      "lon": -118.23963,
      "county-fips": ""
    },
    {
      "id": 1836,
      "name": "ICE MESA VERDE DETENTION FACILITY",
      "county": "Kern",
      "lat": 35.38009,
      "lon": -119.006075,
      "county-fips": ""
    },
    {
      "id": 1846,
      "name": "ICE OTAY MESA DETENTION CENTER SAN DIEGO CDF",
      "county": "San Diego",
      "lat": 32.724103,
      "lon": -117.170912,
      "county-fips": ""
    },
    {
      "id": 1879,
      "name": "YOLO COUNTY JAIL",
      "county": "YOLO",
      "lat": 38.66101,
      "lon": -121.7303,
      "county-fips": 6113
    },
    {
      "id": 1991,
      "name": "ICE YUBA COUNTY JAIL",
      "county": "Yuba",
      "lat": 39.140676,
      "lon": -121.586736,
      "county-fips": ""
    },
    {
      "id": 2029,
      "name": "YOUTHFUL OFFENDER SYSTEM",
      "county": "",
      "lat": 37.155177,
      "lon": -119.543418,
      "county-fips": ""
    },
    {
      "id": 2030,
      "name": "UNSPECIFIED FACILITIES",
      "county": "",
      "lat": 37.155177,
      "lon": -119.543418,
      "county-fips": ""
    },
    {
      "id": 2038,
      "name": "STATEWIDE FOR NON-SPECIFIC FACILITIES",
      "county": "",
      "lat": 37.155177,
      "lon": -119.543418,
      "county-fips": ""
    },
    {
      "id": 2075,
      "name": "SAN FRANCISCO COUNTY JAIL",
      "county": "",
      "lat": 37.77499,
      "lon": -122.405441,
      "county-fips": ""
    },
    {
      "id": 2083,
      "name": "CDCR CCHCS WORKSITE - LOS ANGELES COUNTY",
      "county": "LOS ANGELES",
      "lat": 33.97331,
      "lon": -118.24361,
      "county-fips": ""
    },
    {
      "id": 2086,
      "name": "CDCR CCHCS WORKSITE - MONTEREY COUNTY",
      "county": "MONTEREY",
      "lat": 35.755566,
      "lon": -120.97872,
      "county-fips": ""
    },
    {
      "id": 2088,
      "name": "CDCR CCHCS WORKSITE - RIVERSIDE COUNTY",
      "county": "RIVERSIDE",
      "lat": 33.995007,
      "lon": -117.52874,
      "county-fips": ""
    },
    {
      "id": 2089,
      "name": "CDCR CCHCS WORKSITE - SACRAMENTO COUNTY",
      "county": "SACRAMENTO",
      "lat": 38.584351,
      "lon": -121.49376,
      "county-fips": ""
    },
    {
      "id": 2090,
      "name": "CDCR CCHCS WORKSITE - SAN BERNARDINO COUNTY",
      "county": "SAN BERNARDINO",
      "lat": 34.15554,
      "lon": -117.58974,
      "county-fips": ""
    },
    {
      "id": 2091,
      "name": "CDCR CCHCS WORKSITE - SAN DIEGO COUNTY",
      "county": "SAN DIEGO",
      "lat": 32.826938,
      "lon": -116.75532,
      "county-fips": ""
    },
    {
      "id": 2093,
      "name": "CDCR CCHCS WORKSITE - SAN JOAQUIN COUNTY",
      "county": "SAN JOAQUIN",
      "lat": 37.906882,
      "lon": -121.2234,
      "county-fips": ""
    },
    {
      "id": 2095,
      "name": "CDCR CCHCS WORKSITE - SAN MATEO COUNTY",
      "county": "SAN MATEO",
      "lat": 37.51445,
      "lon": -122.29612,
      "county-fips": ""
    },
    {
      "id": 2096,
      "name": "CDCR CCHCS WORKSITE - SANTA BARBARA COUNTY",
      "county": "SANTA BARBARA",
      "lat": 34.402368,
      "lon": -119.51875,
      "county-fips": ""
    },
    {
      "id": 2098,
      "name": "CDCR CCHCS WORKSITE - SOLANO COUNTY",
      "county": "SOLANO",
      "lat": 38.069204,
      "lon": -122.16438,
      "county-fips": ""
    },
    {
      "id": 2099,
      "name": "CDCR CCHCS WORKSITE - STANISLAUS COUNTY",
      "county": "STANISLAUS",
      "lat": 37.585454,
      "lon": -120.95632,
      "county-fips": ""
    },
    {
      "id": 2100,
      "name": "CDCR CCHCS WORKSITE - VENTURA COUNTY",
      "county": "VENTURA",
      "lat": 34.184847,
      "lon": -118.91642,
      "county-fips": ""
    },
    {
      "id": 2102,
      "name": "CDCR CCHCS WORKSITE - TULARE COUNTY",
      "county": "TULARE",
      "lat": 35.95859,
      "lon": -119.45496,
      "county-fips": ""
    },
    {
      "id": 2178,
      "name": "SANTA BARBARA JAILS",
      "county": "SANTA BARBARA",
      "lat": 34.4449050199534,
      "lon": -119.777127650233,
      "county-fips": 6083
    },
    {
      "id": 2299,
      "name": "DIVISION OF JUVENILE JUSTICE",
      "county": "",
      "lat": 37.155177,
      "lon": -119.543418,
      "county-fips": ""
    },
    {
      "id": 2300,
      "name": "OTHER CCHCS",
      "county": "",
      "lat": 37.155177,
      "lon": -119.543418,
      "county-fips": ""
    },
    {
      "id": 2301,
      "name": "OTHER CDCR",
      "county": "",
      "lat": 37.155177,
      "lon": -119.543418,
      "county-fips": ""
    },
    {
      "id": 2302,
      "name": "PAROLE",
      "county": "",
      "lat": 37.155177,
      "lon": -119.543418,
      "county-fips": ""
    },
    {
      "id": 2340,
      "name": "ATWATER UNITED STATES PENITENTIARY",
      "county": "MERCED",
      "lat": 37.3830994,
      "lon": -120.55909,
      "county-fips": 6047
    },
    {
      "id": 2361,
      "name": "DUBLIN FEDERAL CORRECTIONAL INSTITUTION",
      "county": "ALAMEDA",
      "lat": 37.7159318,
      "lon": -121.88797,
      "county-fips": 6001
    },
    {
      "id": 2381,
      "name": "HERLONG FEDERAL CORRECTIONAL INSTITUTION",
      "county": "LASSEN",
      "lat": 40.1440673,
      "lon": -120.16359,
      "county-fips": 6035
    },
    {
      "id": 2390,
      "name": "LOMPOC FEDERAL CORRECTIONAL COMPLEX",
      "county": "SANTA BARBARA",
      "lat": 34.676188,
      "lon": -120.50559,
      "county-fips": 6083
    },
    {
      "id": 2392,
      "name": "LOS ANGELES METROPOLITAN DETENTION CENTER",
      "county": "LOS ANGELES",
      "lat": 34.0535217,
      "lon": -118.23806,
      "county-fips": 6037
    },
    {
      "id": 2402,
      "name": "MENDOTA FEDERAL CORRECTIONAL INSTITUTION",
      "county": "FRESNO",
      "lat": 36.7307653,
      "lon": -120.39237,
      "county-fips": 6019
    },
    {
      "id": 2428,
      "name": "SAN DIEGO METROPOLITAN CORRECTIONAL CENTER",
      "county": "SAN DIEGO",
      "lat": 32.7137119,
      "lon": -117.16562,
      "county-fips": 6073
    },
    {
      "id": 2439,
      "name": "TERMINAL ISLAND FEDERAL CORRECTIONAL INSTITUTION",
      "county": "LOS ANGELES",
      "lat": 33.7271772,
      "lon": -118.26814,
      "county-fips": 6037
    },
    {
      "id": 2445,
      "name": "VICTORVILLE FEDERAL CORRECTIONAL COMPLEX",
      "county": "SAN BERNARDINO",
      "lat": 34.5722033,
      "lon": -117.36047,
      "county-fips": 6071
    },
    {
      "id": 2447,
      "name": "WESTERN REGIONAL OFFICE",
      "county": "",
      "lat": 38.0167812,
      "lon": -121.35813,
      "county-fips": ""
    },
    {
      "id": 2733,
      "name": "ICE DESERT VIEW ANNEX",
      "county": "",
      "lat": 34.559426,
      "lon": -117.437812,
      "county-fips": ""
    }
]
